ID,Title,StateID,Latitude,Longitude,DeprivationFactor,WeatherFactor,DistanceKm
1,اردبيل,3,38.2497444152832,48.2942848205566,0,0,1514.419
2,اصلاندوز,3,39.4426040649414,47.4100227355957,0,0,1696.987
3,آبي بيگلو,3,38.2848968505859,48.5525054931641,0,0,1534.162
4,بيله سوار,3,39.3760795593262,48.3427085876465,0,0,1686.112
5,پارس آباد,3,39.6457939147949,47.9099502563477,0,0,1715.489
6,تازه كند,3,39.5755882263184,48.0163764953613,0,0,1707.4
7,تازه كندانگوت,3,39.0409660339356,47.74365234375,0,0,1627.242
8,جعفرآباد,3,39.4331779479981,48.0978813171387,0,0,1684.164
9,خلخال,3,37.6207504272461,48.5273666381836,0,0,1389.484
10,رضي,3,38.629020690918,48.0945091247559,0,0,1562.632
11,سرعين,3,38.1376686096191,48.0762329101563,0,0,1540.541
12,عنبران,3,38.4876899719238,48.4351425170898,0,0,1484.902
13,فخرآباد,3,38.5229873657227,47.8616714477539,0,0,1582.306
14,كلور,3,37.3894538879395,48.7229042053223,0,0,1404.096
15,كوراييم,3,37.950569152832,48.2355155944824,0,0,1543.131
16,گرمي,3,39.0121879577637,48.0836029052734,0,0,1638.324
17,گيوي,3,37.6841621398926,48.3396682739258,0,0,1421.744
18,لاهرود,3,38.5073356628418,47.8304786682129,0,0,1587.292
19,مرادلو,3,38.7467613220215,47.7462844848633,0,0,1611.122
20,مشگين شهر,3,38.3971862792969,47.6725807189941,0,0,1608.258
21,نمين,3,38.4236488342285,48.4808197021484,0,0,1474.791
22,نير,3,38.0352172851563,48.0073928833008,0,0,1548.759
23,هشتجين,3,37.363826751709,48.3245849609375,0,0,1420.044
24,هير,3,38.0753555297852,48.497974395752,0,0,1491.457
25,ابريشم,4,32.5561141967773,51.5736312866211,0,0,1260.652
26,ابوزيدآباد,4,33.9041328430176,51.7680015563965,0,0,1083.755
27,اردستان,4,33.3565788269043,52.3781852722168,0,0,1167.963
28,اژيه,4,32.4401702880859,52.3795166015625,0,0,1127.934
29,اصفهان,4,32.57763671875,51.6590538024902,0,0,1252.18
30,افوس,4,33.0241394042969,50.0929794311523,0,0,1264.097
31,انارك,4,33.3068008422852,53.6970291137695,0,0,917.845
32,ايمانشهر,4,32.4703483581543,51.4613838195801,0,0,1278.667
33,آران وبيدگل,4,34.0581970214844,51.4824867248535,0,0,1057.761
34,بادرود,4,33.6897506713867,52.0112648010254,0,0,1118.51
35,باغ بهادران,4,32.3758201599121,51.1912422180176,0,0,1314.608
36,بافران,4,32.8366813659668,53.1421432495117,0,0,1026.649
37,برزك,4,33.7783164978027,51.230152130127,0,0,1077.926
38,برف انبار,4,32.9958724975586,50.1938819885254,0,0,1251.875
39,بوئين ومياندشت,4,33.0804443359375,50.1587333679199,0,0,1219.097
40,بهاران شهر,4,32.5156440734863,51.5414428710938,0,0,1268.656
41,بهارستان,4,32.4865112304688,51.7789115905762,0,0,1191.378
42,پيربكران,4,32.465576171875,51.5559616088867,0,0,1201.829
43,تودشك,4,32.7282676696777,52.6791152954102,0,0,1077.591
44,تيران,4,32.704402923584,51.1531791687012,0,0,1274.247
45,جندق,4,34.0413131713867,54.4144668579102,0,0,817.081
46,جوزدان,4,32.5548973083496,51.3718605041504,0,0,1280.073
47,جوشقان وكامو,4,33.5994682312012,51.2282638549805,0,0,1116.323
48,چادگان,4,32.7715568542481,50.6268577575684,0,0,1338.297
49,چرمهين,4,32.3383598327637,51.1954879760742,0,0,1316.899
50,چمگردان,4,32.3935050964356,51.3353500366211,0,0,1299.627
51,حبيب آباد,4,32.8218879699707,51.7758712768555,0,0,1217.357
52,حسن آباد,4,32.1366348266602,52.6235427856445,0,0,1139.139
53,حنا,4,31.1975841522217,51.7256813049316,0,0,1242.756
54,خالدآباد,4,33.7018356323242,51.9816436767578,0,0,1118.317
55,خميني شهر,4,32.6833305358887,51.5335960388184,0,0,1248.1
56,خوانسار,4,33.2142295837402,50.3188705444336,0,0,1189.553
57,خور,4,33.7718162536621,55.0838432312012,0,0,745.537
58,خوراسگان,4,32.6551017761231,51.7595481872559,0,0,1164.883
59,خورزوق,4,32.7767219543457,51.6498374938965,0,0,1242.087
60,داران,4,32.9862174987793,50.4091377258301,0,0,1228.07
61,دامنه,4,33.0157928466797,50.4877700805664,0,0,1220.18
62,درچه پياز,4,32.6044807434082,51.5477066040039,0,0,1258.483
63,دستگرد,4,32.8020477294922,51.665714263916,0,0,1227.148
64,دولت آباد,4,32.8047294616699,51.6935615539551,0,0,1224.147
65,دهاقان,4,31.9331302642822,51.6541786193848,0,0,1267.857
66,دهق,4,33.103385925293,50.9591751098633,0,0,1185.365
67,ديزيچه,4,32.3779296875,51.5041618347168,0,0,1303.915
68,رزوه,4,32.8351287841797,50.5693435668945,0,0,1250.785
69,رضوانشهر,4,32.6997413635254,51.1038818359375,0,0,1282.535
70,زاينده رود,4,32.3782157897949,51.2732620239258,0,0,1306.99
71,زرين شهر,4,32.3941307067871,51.3858947753906,0,0,1295.355
72,زواره,4,33.4478607177734,52.4866638183594,0,0,1177.582
73,زيباشهر,4,32.3794174194336,51.5648231506348,0,0,1217.152
74,سده لنجان,4,32.3773918151856,51.318904876709,0,0,1302.594
75,سفيدشهر,4,34.1230621337891,51.3515014648438,0,0,1028.615
76,سگزي,4,32.6685638427734,52.1304664611816,0,0,1134.7
77,سميرم,4,31.4145526885986,51.5718688964844,0,0,1327.12
78,شاپورآباد,4,32.8454208374023,51.7433204650879,0,0,1219.587
79,شاهين شهر,4,32.8643188476563,51.5546760559082,0,0,1227.597
80,شهرضا,4,31.9766597747803,51.8494262695313,0,0,1255.284
81,طالخونچه,4,32.2620849609375,51.5642776489258,0,0,1232.071
82,عسگران,4,32.863525390625,50.8521995544434,0,0,1311.891
83,علويچه,4,33.054801940918,51.0814590454102,0,0,1250.29
84,فرخي,4,33.8445816040039,54.9468803405762,0,0,763.391
85,فريدونشهر,4,32.9399871826172,50.1393852233887,0,0,1264.416
86,فلاورجان,4,32.556266784668,51.506290435791,0,0,1264.68
87,فولادشهر,4,32.4895324707031,51.4073677062988,0,0,1287.107
88,قمصر,4,33.752010345459,51.4306488037109,0,0,1076.323
89,قهجاورستان,4,32.7031364440918,51.8350067138672,0,0,1233.027
90,قهدريجان,4,32.5738372802734,51.4558486938477,0,0,1271.112
91,كاشان,4,33.9833946228027,51.4320831298828,0,0,1052.253
92,كركوند,4,32.3462944030762,51.4372367858887,0,0,1301.896
93,كليشادوسودرجان,4,32.5415382385254,51.5358963012695,0,0,1265.425
94,كمشچه,4,32.9057693481445,51.8090400695801,0,0,1207.003
95,كمه,4,31.061466217041,51.5935821533203,0,0,1275.698
96,كوشك,4,32.640079498291,51.5001068115234,0,0,1256.343
97,كوهپايه,4,32.7151107788086,52.4325180053711,0,0,1101.255
98,كهريزسنگ,4,32.6262474060059,51.4771156311035,0,0,1261.524
99,گرگاب,4,32.8657684326172,51.5976524353027,0,0,1230.181
100,گزبرخوار,4,32.8046073913574,51.6188278198242,0,0,1236.455
101,گلپايگان,4,33.4509506225586,50.2833633422852,0,0,1163.083
102,گلدشت,4,32.6299057006836,51.4427185058594,0,0,1261.893
103,گلشن,4,31.929220199585,51.7525062561035,0,0,1259.311
104,گلشهر,4,33.5058822631836,50.4656143188477,0,0,1143.596
105,گوگد,4,33.473445892334,50.3453140258789,0,0,1155.315
106,لاي بيد,4,33.4586524963379,50.694149017334,0,0,1141.447
107,مباركه,4,32.3417739868164,51.5006828308106,0,0,1307.601
108,محمدآباد,4,32.3194541931152,52.1039123535156,0,0,1164.11
109,مشكات,4,34.1753463745117,51.2682571411133,0,0,1017.542
110,منظريه,4,31.9432907104492,51.872127532959,0,0,1257.69
111,مهاباد,4,33.5276565551758,52.2173271179199,0,0,1141.643
112,ميمه,4,33.4467430114746,51.1703453063965,0,0,1130.879
113,نائين,4,32.8604469299316,53.0956153869629,0,0,1030.583
114,نجف آباد,4,32.631534576416,51.3505897521973,0,0,1269.188
115,نصرآباد,4,32.2783546447754,52.0619697570801,0,0,1169.797
116,نطنز,4,33.5046806335449,51.9190711975098,0,0,1129.901
117,نوش آباد,4,34.0808258056641,51.4379463195801,0,0,1039.526
118,نياسر,4,33.9724502563477,51.1489105224609,0,0,1058.196
119,نيك آباد,4,32.3027839660645,52.205207824707,0,0,1153.727
120,ورزنه,4,32.4203186035156,52.6506118774414,0,0,1101.517
121,ورنامخواست,4,32.3549575805664,51.3801193237305,0,0,1301.722
122,وزوان,4,33.4198913574219,51.1833381652832,0,0,1134.083
123,ونك,4,31.5282421112061,51.326473236084,0,0,1360.108
124,هرند,4,32.5638618469238,52.4372901916504,0,0,1117.398
125,اشتهارد,5,35.7245903015137,50.3614768981934,0,0,1005.1
126,آسارا,5,36.0314483642578,51.1738739013672,0,0,972.576
127,تنكمان,5,35.8894081115723,50.6148834228516,0,0,1019.299
128,چهارباغ,5,35.8381538391113,50.8479804992676,0,0,961.67
129,سيف آباد,5,35.9114799499512,50.7705383300781,0,0,967.054
130,شهرجديدهشتگرد,5,35.9842948913574,50.7412033081055,0,0,981.036
131,طالقان,5,36.1729965209961,50.7684898376465,0,0,1068.441
132,كرج,5,35.7247200012207,50.952766418457,0,0,943.509
133,كمال شهر,5,35.8460388183594,50.8840484619141,0,0,956.307
134,كوهسار,5,35.9556694030762,50.7935333251953,0,0,971.094
135,گرمدره,5,35.7445411682129,51.0688552856445,0,0,935.16
136,ماهدشت,5,35.7275619506836,50.8061294555664,0,0,987.259
137,محمدشهر,5,35.7366447448731,50.8995513916016,0,0,955.925
138,مشكين دشت,5,35.7483863830566,50.9407806396484,0,0,950.271
139,نظرآباد,5,35.9519500732422,50.6045341491699,0,0,1017.594
140,هشتگرد,5,35.95068359375,50.6838607788086,0,0,979.773
141,اركواز,6,33.3871078491211,46.5977249145508,0,0,1587.067
142,ايلام,6,33.5750541687012,46.4164161682129,0,0,1554.354
143,ايوان,6,33.8293533325195,46.3061294555664,0,0,1511.097
144,آبدانان,6,32.9883537292481,47.4240951538086,0,0,1431.6
145,آسمان آباد,6,33.8493843078613,46.4656257629395,0,0,1502.731
146,بدره,6,33.3071708679199,47.038330078125,0,0,1471.572
147,پهله,6,33.0114555358887,46.8835563659668,0,0,1514.537
148,توحيد,6,33.7268218994141,47.0682945251465,0,0,1431.46
149,چوار,6,33.6919097900391,46.2971534729004,0,0,1533.336
150,دره شهر,6,33.1494865417481,47.3816604614258,0,0,1431.075
151,دلگشا,6,33.4057121276856,46.5942878723145,0,0,1585.144
152,دهلران,6,32.6902008056641,47.2708549499512,0,0,1583.523
153,زرنه,6,33.926212310791,46.1867218017578,0,0,1500.5
154,سراب باغ,6,32.896671295166,47.5726318359375,0,0,1446.51
155,سرابله,6,33.7682266235352,46.5613670349121,0,0,1510.278
156,صالح آباد,6,33.4687728881836,46.1910667419434,0,0,1584.365
157,لومار,6,33.5671844482422,46.8113555908203,0,0,1560.369
158,مورموري,6,32.726318359375,47.6750984191895,0,0,1476.472
159,موسيان,6,32.5201835632324,47.3770713806152,0,0,1567.519
160,مهران,6,33.1220283508301,46.1728897094727,0,0,1629.243
161,ميمه ,6,33.2266235351563,46.9186477661133,0,0,1627.197
162,اسكو,1,37.917781829834,46.1244697570801,0,0,1580.867
163,اهر,1,38.4745330810547,47.0709838867188,0,0,1622.645
164,ايلخچي,1,37.9367408752441,45.9819869995117,0,0,1580.2
165,آبش احمد,1,39.0401382446289,47.3173637390137,0,0,1743.746
166,آذرشهر,1,37.7661781311035,45.976448059082,0,0,1602.454
167,آقكند,1,37.2533721923828,48.0654716491699,0,0,1356.734
168,باسمنج,1,37.9943542480469,46.4747467041016,0,0,1528.559
169,بخشايش,1,38.1318511962891,46.9474678039551,0,0,1542.384
170,بستان آباد,1,37.8369941711426,46.8309631347656,0,0,1501.737
171,بناب,1,37.345588684082,46.0662002563477,0,0,1533.706
172,بناب جديد,1,38.4233055114746,45.9070091247559,0,0,1633.083
173,تبريز,1,38.0792922973633,46.2891502380371,0,0,1550.477
174,ترك,1,37.6076850891113,47.7681884765625,0,0,1416.14
175,تركمانچاي,1,37.5804405212402,47.3914527893066,0,0,1439.412
176,تسوج,1,38.3105506896973,45.3704147338867,0,0,1660.5
177,تيكمه داش,1,37.7283897399902,46.9458045959473,0,0,1496.383
178,جلفا,1,38.9347648620606,45.6388702392578,0,0,1685.723
179,خاروانا,1,38.6830024719238,46.1686401367188,0,0,1666.283
180,خامنه,1,38.1939392089844,45.6329574584961,0,0,1631.833
181,خراجو,1,37.3116493225098,46.5315322875977,0,0,1483.307
182,خسروشهر,1,37.9543724060059,46.0506858825684,0,0,1574.156
183,خمارلو,1,39.1480102539063,47.0347557067871,0,0,1745.061
184,خواجه,1,38.1546936035156,46.5869102478027,0,0,1553.538
185,دوزدوزان,1,37.949333190918,47.1199645996094,0,0,1534.32
186,زرنق,1,38.0918426513672,47.0817031860352,0,0,1554.654
187,زنوز,1,38.5879936218262,45.8343887329102,0,0,1651.383
188,سراب,1,37.9409980773926,47.5353317260742,0,0,1571.963
189,سردرود,1,38.0317802429199,46.1479148864746,0,0,1561.194
190,سيس,1,38.1940765380859,45.8140869140625,0,0,1611.378
191,سيه رود,1,38.8695182800293,46.0017051696777,0,0,1722.68
192,شبستر,1,38.1805000305176,45.7013931274414,0,0,1622.172
193,شربيان,1,37.8815536499023,47.0999603271484,0,0,1540.159
194,شرفخانه,1,38.1778373718262,45.4902572631836,0,0,1642.485
195,شندآباد,1,38.1421356201172,45.6225204467773,0,0,1632.29
196,شهرجديدسهند,1,37.9450912475586,46.1210098266602,0,0,1575.145
197,صوفيان,1,38.278621673584,45.981616973877,0,0,1594.354
198,عجب شير,1,37.4771003723145,45.894832611084,0,0,1555.672
199,قره آغاج,1,37.1291007995606,46.9722404479981,0,0,1431.427
200,كشكسراي,1,38.4600524902344,45.5689353942871,0,0,1639.347
201,كلوانق,1,38.1012496948242,46.9931907653809,0,0,1549.398
202,كليبر,1,38.8648490905762,47.0407829284668,0,0,1684.605
203,كوزه كنان,1,38.1838035583496,45.5774917602539,0,0,1633.65
204,گوگان,1,37.7691345214844,45.9045715332031,0,0,1605.776
205,ليلان,1,37.0064506530762,46.20556640625,0,0,1576.325
206,مراغه,1,37.3860359191895,46.2336044311523,0,0,1517.385
207,مرند,1,38.4319381713867,45.7720451354981,0,0,1621.599
208,ملكان,1,37.1425323486328,46.1003761291504,0,0,1556.767
209,ممقان,1,37.8386344909668,45.9715576171875,0,0,1595.335
210,مهربان,1,38.0815925598145,47.1316719055176,0,0,1549.593
211,ميانه,1,37.4207077026367,47.7163505554199,0,0,1389.641
212,نظركهريزي,1,37.3473129272461,46.7620849609375,0,0,1458.665
213,وايقان,1,38.1308403015137,45.7127838134766,0,0,1627.43
214,ورزقان,1,38.5087051391602,46.6503448486328,0,0,1602.791
215,هاديشهر,1,38.8384284973145,45.6629066467285,0,0,1677.824
216,هريس,1,38.2496223449707,47.1171188354492,0,0,1575.401
217,هشترود,1,37.4707756042481,47.0596694946289,0,0,1450.128
218,هوراند,1,38.8571891784668,47.3651275634766,0,0,1680.759
219,يامچي,1,38.5216598510742,45.6402587890625,0,0,1637.312
220,اروميه,2,37.5395393371582,45.0576515197754,0,0,1691.689
221,اشنويه,2,37.040210723877,45.1000442504883,0,0,1683.477
222,ايواوغلي,2,38.7186546325684,45.2114105224609,0,0,1687.502
223,آواجيق,2,39.3317375183106,44.1531105041504,0,0,1838.858
224,باروق,2,36.9509696960449,46.3199768066406,0,0,1591.964
225,بازرگان,2,39.3942375183106,44.3866882324219,0,0,1820.955
226,بوكان,2,36.5079879760742,46.2066612243652,0,0,1507.15
227,پلدشت,2,39.3478507995606,45.0683708190918,0,0,1776.83
228,پيرانشهر,2,36.6939392089844,45.1411933898926,0,0,1698.64
229,تازه شهر,2,38.1757659912109,44.6908111572266,0,0,1721.884
230,تكاب,2,36.4042205810547,47.1101608276367,0,0,1404.569
231,چهاربرج,2,37.1257705688477,45.9755630493164,0,0,1559.243
232,خليفان,2,36.5070877075195,45.7964744567871,0,0,1673.061
233,خوي,2,38.5202941894531,44.9546546936035,0,0,1716.54
234,ديزج ديز,2,38.4608955383301,45.0234451293945,0,0,1731.984
235,ربط,2,36.2112731933594,45.5517425537109,0,0,1596.135
236,سردشت,2,36.153995513916,45.4791145324707,0,0,1602.952
237,سرو,2,37.7227325439453,44.6504287719727,0,0,1733.744
238,سلماس,2,38.1987380981445,44.7660293579102,0,0,1715.013
239,سيلوانه,2,37.4224281311035,44.8513221740723,0,0,1728.092
240,سيمينه,2,36.7256965637207,46.1530685424805,0,0,1610.682
241,سيه چشمه,2,39.0691795349121,44.3874588012695,0,0,1804.232
242,شاهين دژ,2,36.6792144775391,46.566463470459,0,0,1485.957
243,شوط,2,39.2181243896484,44.7711219787598,0,0,1784.165
244,فيرورق,2,38.5777816772461,44.8367156982422,0,0,1725.335
245,قره ضياءالدين,2,38.888542175293,45.0251731872559,0,0,1725.272
246,قطور,2,38.4734764099121,44.4057006835938,0,0,1774.873
247,قوشچي,2,37.9912071228027,45.0378761291504,0,0,1711.721
248,كشاورز,2,36.8347473144531,46.3584327697754,0,0,1605.355
249,گردكشانه,2,36.8118896484375,45.2739372253418,0,0,1685.502
250,ماكو,2,39.2921524047852,44.4924354553223,0,0,1802.381
251,محمديار,2,36.9813995361328,45.5221405029297,0,0,1639.467
252,محمودآباد,2,36.7118759155273,46.5190086364746,0,0,1492.842
253,مهاباد ,2,36.7702217102051,45.7284126281738,0,0,1625.556
254,مياندوآب,2,36.9649620056152,46.1059494018555,0,0,1579.784
255,ميرآباد,2,36.4030838012695,45.3748664855957,0,0,1633.393
256,نالوس,2,36.9845085144043,45.1431427001953,0,0,1693.423
257,نقده,2,36.9533843994141,45.3889045715332,0,0,1652.317
258,نوشين,2,37.7343368530273,45.0522918701172,0,0,1697.568
259,امام حسن,7,29.8396549224854,50.2638854980469,0,0,1568.002
260,انارستان,7,28.0325489044189,52.0664672851563,0,0,1664.787
261,اهرم,7,28.8842239379883,51.278694152832,0,0,1620.643
262,آبپخش,7,29.3537864685059,51.0646209716797,0,0,1588.371
263,آبدان,7,28.0739288330078,51.7706451416016,0,0,1723.655
264,برازجان,7,29.2707118988037,51.2167091369629,0,0,1570.388
265,بردخون,7,28.0638523101807,51.4778366088867,0,0,1738.115
266,بردستان,7,27.8714828491211,51.959644317627,0,0,1697.747
267,بندردير,7,27.8390598297119,51.9350128173828,0,0,1698.978
268,بندرديلم,7,30.052282333374,50.1631889343262,0,0,1540.433
269,بندرريگ,7,29.4879055023193,50.6264762878418,0,0,1646.582
270,بندركنگان,7,27.8377628326416,52.0617942810059,0,0,1684.806
271,بندرگناوه,7,29.5736541748047,50.5185432434082,0,0,1651.195
272,بنك,7,27.8716888427734,52.0273971557617,0,0,1692.765
273,بوشهر,7,28.9214267730713,50.8376693725586,0,0,1629.752
274,تنگ ارم,7,29.1536903381348,51.5274200439453,0,0,1585.588
275,جم,7,27.8243522644043,52.340950012207,0,0,1623.084
276,چغادك,7,28.9875717163086,51.025016784668,0,0,1608.145
277,خارك,7,29.2380523681641,50.3193054199219,0,0,0
278,خورموج,7,28.6271820068359,51.3825225830078,0,0,1667.232
279,دالكي,7,29.4292411804199,51.2911491394043,0,0,1550.448
280,دلوار,7,28.7459945678711,51.070182800293,0,0,1643.664
281,ريز,7,28.0555763244629,52.0770797729492,0,0,1666.283
282,سعدآباد,7,29.3841953277588,51.116641998291,0,0,1593.577
283,سيراف,7,27.6681728363037,52.3388481140137,0,0,1654.985
284,شبانكاره,7,29.4725437164307,50.9940643310547,0,0,1603.629
285,شنبه,7,28.3949813842773,51.764030456543,0,0,1721.619
286,عسلويه,7,27.4757614135742,52.6081085205078,0,0,1693.543
287,كاكي,7,28.3402099609375,51.5226783752441,0,0,1703.135
288,كلمه,7,28.9435176849365,51.4593315124512,0,0,1644.331
289,نخل تقي,7,27.4970149993897,52.5839881896973,0,0,1689.788
290,وحدتيه,7,29.4829578399658,51.2363777160645,0,0,1554.141
291,ارجمند,8,35.8140182495117,52.5138244628906,0,0,792.021
292,اسلامشهر,8,35.5010452270508,51.2255477905273,0,0,933.681
293,انديشه,8,35.6873931884766,51.0223922729492,0,0,934.965
294,آبسرد,8,35.6217079162598,52.1501274108887,0,0,826.643
295,آبعلي,8,35.7596244812012,51.9629592895508,0,0,854.417
296,باغستان,8,35.6345520019531,51.1331520080566,0,0,925.413
297,باقرشهر,8,35.5262451171875,51.4030609130859,0,0,896.333
298,بومهن,8,35.7278480529785,51.8688316345215,0,0,854.782
299,پاكدشت,8,35.4743118286133,51.6757011413574,0,0,860.265
300,پرديس,8,35.7423477172852,51.8214073181152,0,0,857.084
301,پيشوا,8,35.3055534362793,51.7224388122559,0,0,862.399
302,تجريش,8,35.8103790283203,51.4647598266602,0,0,909.506
303,تهران,8,35.7029075622559,51.3497581481934,0,0,903.168
304,جوادآباد,8,35.2108612060547,51.6731834411621,0,0,861.771
305,چهاردانگه,8,35.5963745117188,51.3045654296875,0,0,904.193
306,حسن آباد ,8,35.3676567077637,51.2429885864258,0,0,923.115
307,دماوند,8,35.6939544677734,52.0472183227539,0,0,836.682
308,رباط كريم,8,35.4832000732422,51.0799140930176,0,0,939.176
309,رودهن,8,35.7376098632813,51.9104232788086,0,0,851.121
310,ري,8,35.6031913757324,51.4387092590332,0,0,889.187
311,شاهدشهر,8,35.5718612670898,51.0873832702637,0,0,951.912
312,شريف آباد,8,35.4223403930664,51.7859191894531,0,0,848.274
313,شهريار,8,35.6330146789551,51.0597038269043,0,0,958.036
314,صالح آباد ,8,35.504940032959,51.189136505127,0,0,937.288
315,صباشهر,8,35.5787582397461,51.1142654418945,0,0,950.966
316,صفادشت,8,35.6913528442383,50.8406944274902,0,0,989.668
317,فردوسيه,8,35.6019287109375,51.0632095336914,0,0,960.767
318,فرون آباد,8,35.5052719116211,51.627082824707,0,0,866.613
319,فشم,8,35.9017333984375,51.5198364257813,0,0,922.49
320,فيروزكوه,8,35.7545585632324,52.7738723754883,0,0,759.762
321,قدس,8,35.7124824523926,51.1128921508789,0,0,924.711
322,قرچك,8,35.4157943725586,51.5866737365723,0,0,876.053
323,كهريزك,8,35.5238151550293,51.3551025390625,0,0,902.893
324,كيلان,8,35.5561485290527,52.1628723144531,0,0,851.542
325,گلستان,8,35.5160102844238,51.1621894836426,0,0,941.896
326,لواسان,8,35.8194007873535,51.6372909545898,0,0,916.557
327,ملارد,8,35.6547012329102,50.979175567627,0,0,966.451
328,نسيم شهر,8,35.5586891174316,51.169490814209,0,0,952.071
329,نصيرآباد,8,35.4901885986328,51.1410446166992,0,0,939.652
330,وحيديه,8,35.6052207946777,51.0261039733887,0,0,958.42
331,ورامين,8,35.3293952941895,51.6346855163574,0,0,872.541
332,اردل,9,31.9978656768799,50.6614532470703,0,0,1439.662
333,آلوني,9,31.5522041320801,51.057014465332,0,0,1431.149
334,باباحيدر,9,32.3289451599121,50.4688758850098,0,0,1382.738
335,بروجن,9,31.9667949676514,51.2894248962402,0,0,1275.941
336,بلداجي,9,31.9370422363281,51.0526123046875,0,0,1383.085
337,بن,9,32.542781829834,50.746208190918,0,0,1349.387
338,جونقان,9,32.1429557800293,50.6865997314453,0,0,1380.867
339,چلگرد,9,32.4672775268555,50.1300430297852,0,0,1423.851
340,سامان,9,32.4515762329102,50.910457611084,0,0,1315.75
341,سفيددشت,9,32.1297721862793,51.1828765869141,0,0,1335.504
342,سودجان,9,32.521125793457,50.4003562927246,0,0,1376.821
343,سورشجان,9,32.3158149719238,50.6788520812988,0,0,1354.723
344,شلمزار,9,32.0466194152832,50.8170471191406,0,0,1381.118
345,شهركرد,9,32.3161811828613,50.8582038879395,0,0,1340.58
346,طاقانك,9,32.2231254577637,50.8369407653809,0,0,1359.647
347,فارسان,9,32.2572975158691,50.5656776428223,0,0,1370.225
348,فرادنبه,9,32.0085716247559,51.2147483825684,0,0,1349.19
349,فرخ شهر,9,32.273983001709,50.9729461669922,0,0,1340.778
350,كيان,9,32.2833137512207,50.8891754150391,0,0,1350.502
351,گندمان,9,31.8630504608154,51.1533851623535,0,0,1374.035
352,گهرو,9,32.0015258789063,50.886287689209,0,0,1390.234
353,لردگان,9,31.5108184814453,50.8300895690918,0,0,1458.745
354,مال خليفه,9,31.2898597717285,51.2654075622559,0,0,1461.696
355,ناغان,9,31.9343223571777,50.7306022644043,0,0,1428.822
356,نافچ,9,32.4240951538086,50.7884368896484,0,0,1333.968
357,نقنه,9,31.932336807251,51.3288421630859,0,0,1279.62
358,هفشجان,9,32.2255935668945,50.7946319580078,0,0,1352.554
359,ارسك,10,33.7036666870117,57.3718185424805,0,0,461.221
360,اسديه,10,32.9159278869629,60.0244903564453,0,0,568.659
361,اسفدن,10,33.6452674865723,59.7787857055664,0,0,453.048
362,اسلاميه,10,34.0423126220703,58.2200088500977,0,0,356.722
363,آرين شهر,10,33.3311004638672,59.2329978942871,0,0,440.672
364,آيسك,10,33.8866500854492,58.3815956115723,0,0,390.532
365,بشرويه,10,33.8528137207031,57.4224433898926,0,0,454.401
366,بيرجند,10,32.85693359375,59.2195472717285,0,0,499.72
367,حاجي آباد,10,33.6046752929688,59.9975357055664,0,0,475.351
368,خضري دشت بياض,10,34.02294921875,58.8065414428711,0,0,336.766
369,خوسف,10,32.7791709899902,58.8858642578125,0,0,533.712
370,زهان,10,33.4197387695313,59.8108901977539,0,0,483.141
371,سرايان,10,33.8603744506836,58.5223197937012,0,0,400.75
372,سربيشه,10,32.576358795166,59.7983474731445,0,0,562.224
373,سه قلعه,10,33.6664695739746,58.3994026184082,0,0,422.693
374,شوسف,10,31.803337097168,60.0088691711426,0,0,655.195
375,طبس مسينا,10,32.801082611084,60.2229385375977,0,0,592.998
376,فردوس,10,34.0180778503418,58.1723861694336,0,0,362.056
377,قائن,10,33.7294464111328,59.1809043884277,0,0,392.147
378,قهستان,10,33.1463317871094,59.7157897949219,0,0,544.76
379,گزيك,10,33.000301361084,60.2225608825684,0,0,594.179
380,محمد شهر,10,32.8749847412109,59.0177345275879,0,0,521.316
381,مود,10,32.7053298950195,59.5241508483887,0,0,530.237
382,نهبندان,10,31.5407867431641,60.0378074645996,0,0,687.552
383,نيمبلوك,10,33.9011001586914,58.9294319152832,0,0,359.137
384,احمدآبادصولت,11,35.1155395507813,60.689380645752,0,0,186.652
385,انابد,11,35.2511215209961,57.8098602294922,0,0,302.452
386,باجگيران,11,37.6241149902344,58.4152908325195,0,0,215.424
387,باخرز,11,34.9832916259766,60.3187561035156,0,0,216.61
388,بار,11,36.4888763427734,58.7191543579102,0,0,191.38
389,بايگ,11,35.3751373291016,59.0397071838379,0,0,183.374
390,بجستان,11,34.5154876708984,58.1818618774414,0,0,305.153
391,بردسكن,11,35.2602806091309,57.9720497131348,0,0,288.166
392,بيدخت,11,34.3462905883789,58.7573356628418,0,0,294.17
393,تايباد,11,34.7398376464844,60.7771377563477,0,0,233.716
394,تربت جام,11,35.2416458129883,60.6216163635254,0,0,171.331
395,تربت حيدريه,11,35.2784576416016,59.213020324707,0,0,161.384
396,جغتاي,11,36.6396522521973,57.077205657959,0,0,336.85
397,جنگل,11,34.7016372680664,59.2234687805176,0,0,235.851
398,چاپشلو,11,37.3474235534668,59.0771827697754,0,0,251.112
399,چكنه,11,36.8179702758789,58.5041961669922,0,0,136.435
400,چناران,11,36.6422805786133,59.1208381652832,0,0,58.034
401,خرو,11,36.1364898681641,59.0270690917969,0,0,112.02
402,خليل آباد,11,35.244987487793,58.2851638793945,0,0,259.328
403,خواف,11,34.5628662109375,60.1442947387695,0,0,280.926
404,داورزن,11,36.3512573242188,56.8780403137207,0,0,319.264
405,درگز,11,37.444751739502,59.105712890625,0,0,265.242
406,درود,11,36.1357383728027,59.1123695373535,0,0,114.821
407,دولت آباد ,11,35.2820816040039,59.5221214294434,0,0,185.532
408,رباط سنگ,11,35.5446968078613,59.1941795349121,0,0,124.94
409,رشتخوار,11,34.9750671386719,59.623046875,0,0,212.547
410,رضويه,11,36.2055015563965,59.7698516845703,0,0,29.236
411,روداب,11,36.0208129882813,57.3124046325684,0,0,288.948
412,ريوش,11,35.4765243530273,58.4616928100586,0,0,234.936
413,سبزوار,11,36.2092132568359,57.6823196411133,0,0,244.901
414,سرخس,11,36.5486564636231,61.1486015319824,0,0,201.751
415,سفيدسنگ,11,35.6600952148438,60.0933303833008,0,0,114.542
416,سلامي,11,34.7443695068359,59.9764709472656,0,0,255.286
417,سلطان آباد,11,36.4027976989746,58.0398902893066,0,0,208.552
418,سنگان,11,34.3977737426758,60.2554779052734,0,0,303.654
419,شادمهر,11,35.1734199523926,59.0379638671875,0,0,186.104
420,شانديز,11,36.3952140808106,59.2981948852539,0,0,31.51
421,ششتمد,11,35.9595794677734,57.7702255249023,0,0,281.181
422,شهرآباد,11,35.1469116210938,57.934871673584,0,0,301.787
423,شهرزو,11,36.746036529541,59.9242820739746,0,0,104.203
424,صالح آباد  ,11,35.6879920959473,61.0904541015625,0,0,251.445
425,طرقبه,11,36.3042984008789,59.3763275146484,0,0,23.016
426,عشق آباد,11,36.0394172668457,58.6832084655762,0,0,156.466
427,فرهادگرد,11,35.7518272399902,59.7298851013184,0,0,73.287
428,فريمان,11,35.7040328979492,59.8482780456543,0,0,83.07
429,فيروزه,11,36.2856063842773,58.5890197753906,0,0,157.041
430,فيض آباد,11,35.0146217346191,58.7751235961914,0,0,219.423
431,قاسم آباد,11,34.3556022644043,59.8619689941406,0,0,338.822
432,قدمگاه,11,36.1058921813965,59.0604667663574,0,0,107.583
433,قلندرآباد,11,35.5989685058594,59.951042175293,0,0,101.635
434,قوچان,11,37.1023674011231,58.510871887207,0,0,133.67
435,كاخك,11,34.1486740112305,58.6445121765137,0,0,315.336
436,كاريز,11,34.8136367797852,60.825382232666,0,0,223.288
437,كاشمر,11,35.2427597045898,58.4598808288574,0,0,242.307
438,كدكن,11,35.5858345031738,58.8789710998535,0,0,157.768
439,كلات,11,36.9945602416992,59.7498817443848,0,0,149.925
440,كندر,11,35.212459564209,58.1507797241211,0,0,274.47
441,گلمكان,11,36.482105255127,59.1594924926758,0,0,56.46
442,گناباد,11,34.351749420166,58.6857109069824,0,0,291.145
443,لطف آباد,11,37.5152320861816,59.3347320556641,0,0,288.71
444,مزدآوند,11,36.1546516418457,60.5276298522949,0,0,114.639
445,مشهد,11,36.310432434082,59.5756721496582,0,0,0
446,مشهدريزه,11,34.7951889038086,60.5076179504395,0,0,262.467
447,ملك آباد,11,35.9965972900391,59.5935859680176,0,0,51.27
448,نشتيفان,11,34.4343605041504,60.1764221191406,0,0,299.069
449,نصر آباد,11,35.4180755615234,60.3153991699219,0,0,137.585
450,نقاب,11,36.7085456848145,57.4081573486328,0,0,322.371
451,نوخندان,11,37.5193481445313,58.9889144897461,0,0,252.989
452,نيشابور,11,36.2079277038574,58.7940292358398,0,0,135.947
453,نيل شهر,11,35.1228561401367,60.7731323242188,0,0,195.449
454,همت آباد,11,36.2977828979492,58.4641571044922,0,0,167.863
455,يونسي,11,34.8053817749023,58.4372138977051,0,0,260.299
456,اسفراين,12,37.0726661682129,57.5096626281738,0,0,326.613
457,ايور,12,36.9688110351563,56.2607841491699,0,0,420.535
458,آشخانه,12,37.5581779479981,56.9239616394043,0,0,309.463
459,بجنورد,12,37.4467887878418,57.3274574279785,0,0,262.209
460,پيش قلعه,12,37.6486015319824,57.0014762878418,0,0,311.741
461,تيتكانلو,12,37.2805557250977,58.2895126342773,0,0,166.442
462,جاجرم,12,36.9556427001953,56.3577766418457,0,0,424.215
463,حصارگرمخان,12,37.5158538818359,57.4848861694336,0,0,243.041
464,درق,12,36.9720687866211,56.2145004272461,0,0,425.347
465,راز,12,37.934455871582,57.1075477600098,0,0,374.709
466,سنخواست,12,37.0999031066895,56.8515586853027,0,0,366.841
467,شوقان,12,37.3416366577148,56.8870811462402,0,0,319.309
468,شيروان,12,37.4015159606934,57.9241676330566,0,0,197.246
469,صفي آباد,12,36.6955032348633,57.9270248413086,0,0,216.936
470,فاروج,12,37.2236938476563,58.2189064025879,0,0,164.326
471,قاضي,12,37.4950065612793,56.7486572265625,0,0,332.662
472,گرمه,12,36.9785194396973,56.3015403747559,0,0,418.917
473,لوجلي,12,37.6070404052734,57.8576354980469,0,0,226.883
474,اروندكنار,13,29.9780826568604,48.5168266296387,0,0,1770.113
475,الوان,13,31.8741016387939,48.3411140441895,0,0,1519.438
476,اميديه,13,30.7556076049805,49.7122497558594,0,0,1578.289
477,انديمشك,13,32.4246444702148,48.3731002807617,0,0,1448.637
478,اهواز,13,31.2420139312744,48.671272277832,0,0,1613.486
479,ايذه,13,31.8306846618652,49.8649368286133,0,0,1580.155
480,آبادان,13,30.3560085296631,48.2800521850586,0,0,1717.426
481,آغاجاري,13,30.6997203826904,49.8297691345215,0,0,1560.483
482,باغ ملك,13,31.5133056640625,49.890495300293,0,0,1623.427
483,بستان,13,31.7216396331787,47.9811477661133,0,0,1570.608
484,بندرامام خميني,13,30.43869972229,49.0756721496582,0,0,1705.332
485,بندرماهشهر,13,30.4694690704346,49.1800079345703,0,0,1711.949
486,بهبهان,13,30.596263885498,50.2416076660156,0,0,1505.491
487,تركالكي,13,32.24267578125,48.846321105957,0,0,1518.72
488,جايزان,13,30.8749504089355,49.854434967041,0,0,1559.193
489,جنت مكان,13,32.1843070983887,48.8161468505859,0,0,1506.143
490,چغاميش,13,32.2094802856445,48.5455551147461,0,0,1482.342
491,چمران,13,30.7135639190674,49.1768684387207,0,0,1686.627
492,چوئبده,13,30.2000465393066,48.5531883239746,0,0,1755.61
493,حر,13,32.1442184448242,48.3905258178711,0,0,1497.67
494,حسينيه,13,32.6633529663086,48.2456207275391,0,0,1422.8
495,حمزه,13,32.3962249755859,48.578540802002,0,0,1476.666
496,حميديه,13,31.4816207885742,48.4323997497559,0,0,1617.366
497,خرمشهر,13,30.4448184967041,48.1787910461426,0,0,1729.66
498,دارخوين,13,30.7449321746826,48.4292488098145,0,0,1671.405
499,دزآب,13,32.2879066467285,48.4282379150391,0,0,1469.228
500,دزفول,13,32.3788948059082,48.4193000793457,0,0,1457.542
501,دهدز,13,31.7099552154541,50.2885284423828,0,0,1525.316
502,رامشير,13,30.8927555084229,49.4088287353516,0,0,1695.653
503,رامهرمز,13,31.2592163085938,49.6053123474121,0,0,1688.133
504,رفيع,13,31.5974349975586,47.894172668457,0,0,1603.666
505,زهره,13,30.4681549072266,49.6830101013184,0,0,1617.751
506,سالند,13,32.494068145752,48.8343353271484,0,0,1498.536
507,سردشت ,13,30.3278064727783,50.2178802490234,0,0,1507.095
508,سماله,13,32.1940116882324,48.8577537536621,0,0,1525.381
509,سوسنگرد,13,31.558614730835,48.1895866394043,0,0,1598.171
510,شادگان,13,30.6412620544434,48.6635360717773,0,0,1697.682
511,شاوور,13,32.0586853027344,48.3008728027344,0,0,1499.087
512,شرافت,13,32.0880813598633,48.7677192687988,0,0,1504.529
513,شوش,13,32.2067451477051,48.2574272155762,0,0,1480.741
514,شوشتر,13,32.0546417236328,48.834716796875,0,0,1510.742
515,شيبان,13,31.3845748901367,48.7871131896973,0,0,1593.308
516,صالح شهر,13,32.2136726379395,48.6721839904785,0,0,1485.079
517,صالح مشطط,13,32.3135795593262,48.1480674743652,0,0,1506.322
518,صفي آباد ,13,32.2478446960449,48.4215087890625,0,0,1473.629
519,صيدون,13,31.365743637085,50.0813941955566,0,0,1651.321
520,قلعه تل,13,31.631498336792,49.8901786804199,0,0,1608.267
521,قلعه خواجه,13,32.2052993774414,49.4487037658691,0,0,1623.725
522,گتوند,13,32.2472152709961,48.8178253173828,0,0,1513.109
523,گوريه,13,31.8566417694092,48.7557907104492,0,0,1535.842
524,لالي,13,32.3298187255859,49.0929832458496,0,0,1533.915
525,مسجدسليمان,13,31.9646625518799,49.2863388061523,0,0,1571.664
526,مشراگه,13,31.0107021331787,49.4379386901856,0,0,1679.105
527,مقاومت,13,30.4068908691406,48.1953277587891,0,0,1724.578
528,ملاثاني,13,31.5853481292725,48.8870124816895,0,0,1564.598
529,ميانرود,13,32.2278671264648,48.4244613647461,0,0,1476.475
530,ميداود,13,31.3724670410156,49.813663482666,0,0,1648.61
531,مينوشهر,13,30.3606548309326,48.2103958129883,0,0,1724.217
532,ويس,13,31.4841442108154,48.8745079040527,0,0,0
533,هفتگل,13,31.4456787109375,49.5331382751465,0,0,1621.002
534,هنديجان,13,30.2236862182617,49.7113990783691,0,0,1591.411
535,هويزه,13,31.4606819152832,48.0774879455566,0,0,1611.674
536,ابهر,14,36.1361312866211,49.2245445251465,0,0,1170.751
537,ارمغانخانه,14,36.9781494140625,48.371940612793,0,0,1297.975
538,آب بر,14,36.9278526306152,48.9561653137207,0,0,1239.803
539,چورزق,14,36.9928779602051,48.7785263061523,0,0,1261.807
540,حلب,14,36.2962112426758,48.0638618469238,0,0,1322.564
541,خرمدره,14,36.2114562988281,49.1953887939453,0,0,1178.247
542,دندي,14,36.5510940551758,47.6202430725098,0,0,1352.966
543,زرين آباد,14,36.4292335510254,48.2769508361816,0,0,1293.471
544,زرين رود,14,35.756217956543,48.4810905456543,0,0,1242.851
545,زنجان,14,36.6795539855957,48.4929962158203,0,0,1259.399
546,سجاس,14,36.2405891418457,48.5530853271484,0,0,1266.073
547,سلطانيه,14,36.4336318969727,48.7955055236816,0,0,1228.115
548,سهرورد,14,36.0728073120117,48.4391021728516,0,0,1257.968
549,صائين قلعه,14,36.3047676086426,49.0723533630371,0,0,1193.687
550,قيدار,14,36.1085662841797,48.5899887084961,0,0,1235.17
551,گرماب,14,35.8455390930176,48.2011222839356,0,0,1274.741
552,ماه نشان,14,36.7435836791992,47.6706466674805,0,0,1367.69
553,هيدج,14,36.2540397644043,49.1295852661133,0,0,1186.409
554,اميريه,15,36.0280494689941,54.142204284668,0,0,590.917
555,ايوانكي,15,35.3449745178223,52.068977355957,0,0,820.779
556,آرادان,15,35.2516479492188,52.4975395202637,0,0,778.023
557,بسطام,15,36.4844627380371,55.0009002685547,0,0,502.849
558,بيارجمند,15,36.0786666870117,55.807430267334,0,0,462.944
559,دامغان,15,36.1651992797852,54.344841003418,0,0,563.167
560,درجزين,15,35.6456069946289,53.3336410522461,0,0,685.058
561,ديباج,15,36.4305229187012,54.2289123535156,0,0,617.311
562,سرخه,15,35.4637260437012,53.2103576660156,0,0,700.805
563,سمنان,15,35.5771141052246,53.3819274902344,0,0,678.518
564,شاهرود,15,36.4120864868164,54.9724617004395,0,0,498.953
565,شهميرزاد,15,35.7702331542969,53.3335838317871,0,0,700.458
566,كلاته خيج,15,36.6705627441406,55.3004875183106,0,0,544.604
567,گرمسار,15,35.2178230285645,52.333625793457,0,0,792.578
568,مجن,15,36.4802207946777,54.6479797363281,0,0,532.043
569,مهدي شهر,15,35.699649810791,53.3458709716797,0,0,689.646
570,ميامي,15,36.4093246459961,55.6516532897949,0,0,436.106
571,اديمي,16,31.11745262146,61.407642364502,0,0,861.93
572,اسپكه,16,26.8373584747314,60.1723251342773,0,0,1368.872
573,ايرانشهر,16,27.2041645050049,60.6751289367676,0,0,1268.466
574,بزمان,16,27.8503456115723,60.1754837036133,0,0,1197.45
575,بمپور,16,27.1937408447266,60.4562187194824,0,0,1291.218
576,بنت,16,26.2868232727051,59.5226707458496,0,0,1526.604
577,بنجار,16,31.0428943634033,61.5674514770508,0,0,865.282
578,پيشين,16,26.07985496521,61.7484016418457,0,0,1477.368
579,جالق,16,27.5827865600586,62.7007255554199,0,0,1355.975
580,چاه بهار,16,25.2945194244385,60.6477012634277,0,0,1597.626
581,خاش,16,28.209436416626,61.2028617858887,0,0,1120.838
582,دوست محمد,16,31.1427326202393,61.7928085327148,0,0,890.376
583,راسك,16,26.2332515716553,61.4054412841797,0,0,1433.388
584,زابل,16,31.0088672637939,61.4938087463379,0,0,858.244
585,زابلي,16,27.1145877838135,61.6725997924805,0,0,1275.214
586,زاهدان,16,29.4821357727051,60.85205078125,0,0,946.953
587,زرآباد,16,25.5872364044189,59.3962898254395,0,0,1695.539
588,زهك,16,30.8931617736816,61.6829261779785,0,0,881.988
589,سراوان,16,27.3613433837891,62.3330726623535,0,0,1277.135
590,سرباز,16,26.6332359313965,61.2580604553223,0,0,1371.933
591,سوران,16,27.2860298156738,61.9948806762695,0,0,1301.909
592,سيركان,16,26.8298721313477,62.6384811401367,0,0,1375.454
593,علي اكبر,16,30.939079284668,61.3279647827148,0,0,878.793
594,فنوج,16,26.5757274627686,59.6449851989746,0,0,1444.496
595,قصرقند,16,26.2130393981934,60.7416763305664,0,0,1519.627
596,كنارك,16,25.3595199584961,60.3969802856445,0,0,1576.083
597,گشت,16,27.7886066436768,61.9510879516602,0,0,1214.33
598,گلمورتي,16,27.4812297821045,59.447322845459,0,0,1403.025
599,محمدان,16,27.1998977661133,60.5608177185059,0,0,1279.375
600,محمد آباد,16,30.8729267120361,61.4618644714356,0,0,873.823
601,محمدي,16,27.3268337249756,62.3901672363281,0,0,1285.165
602,ميرجاوه,16,29.0156440734863,61.4495468139648,0,0,1034.624
603,نصرت آباد,16,29.857982635498,59.9736595153809,0,0,1030.92
604,نگور,16,25.3888053894043,61.1399421691895,0,0,1562.583
605,نوك آباد,16,28.5391082763672,60.7588806152344,0,0,1067.964
606,نيك شهر,16,26.2345523834229,60.2268600463867,0,0,1459.418
607,هيدوج,16,27.0020618438721,62.1193695068359,0,0,1343.983
608,اردكان,17,30.2320652008057,51.9920501708984,0,0,1310.264
609,ارسنجان,17,29.9098110198975,53.3006973266602,0,0,1259.462
610,استهبان,17,29.1260662078857,54.0446281433106,0,0,1291.041
611,اسير,17,27.7228317260742,52.6656875610352,0,0,1639.948
612,اشكنان,17,27.2255363464355,53.6081733703613,0,0,1755.391
613,افزر,17,28.3462944030762,52.9656257629395,0,0,1563.673
614,اقليد,17,30.9019203186035,52.7052612304688,0,0,1124.958
615,امام شهر,17,28.4452362060547,53.1506042480469,0,0,1539.012
616,اوز,17,27.7578811645508,54.012378692627,0,0,1498.186
617,اهل,17,27.210994720459,53.6597938537598,0,0,1761.001
618,ايج,17,29.0201721191406,54.2453842163086,0,0,1306.145
619,ايزدخواست,17,31.5170097351074,52.1249351501465,0,0,1196.99
620,آباده,17,31.1429824829102,52.6501159667969,0,0,1127.759
621,آباده طشك,17,29.8098621368408,53.7306861877441,0,0,1317.214
622,باب انار,17,28.9684448242188,53.2091445922852,0,0,1438.526
623,بالاده,17,29.2849922180176,51.9389266967773,0,0,1507.82
624,بنارويه,17,28.0866107940674,54.0456314086914,0,0,1562.865
625,بوانات,17,30.4609355926514,53.6389656066895,0,0,1181.079
626,بهمن,17,31.1948585510254,52.4853096008301,0,0,1150.957
627,بيرم,17,27.4309120178223,53.5151214599609,0,0,1591
628,بيضا,17,29.9708938598633,52.3977584838867,0,0,1331.206
629,جنت شهر,17,28.6534748077393,54.6851768493652,0,0,1398.661
630,جويم,17,28.2615451812744,53.9799537658691,0,0,1543.268
631,جهرم,17,28.4949188232422,53.5668869018555,0,0,1481.193
632,حاجي آباد ,17,28.3574962615967,54.4203147888184,0,0,1435.795
633,حسامي,17,29.9675426483154,53.8724060058594,0,0,1219.312
634,حسن آباد  ,17,30.51979637146,52.4560394287109,0,0,0
635,خانه زنيان,17,29.6711864471436,52.1497039794922,0,0,1389.699
636,خاوران,17,28.9389381408691,53.3130950927734,0,0,1412.003
637,خرامه,17,29.493049621582,53.3100318908691,0,0,1325.041
638,خشت,17,29.5542602539063,51.3354415893555,0,0,1526.715
639,خنج,17,27.8923320770264,53.429615020752,0,0,1621.203
640,خور ,17,27.6446285247803,54.3439521789551,0,0,1454.134
641,خومه زار,17,30.0063247680664,51.5781211853027,0,0,1396.895
642,داراب,17,28.7542610168457,54.5471229553223,0,0,1377.294
643,داريان,17,29.5603313446045,52.9200897216797,0,0,1378.016
644,دبيران,17,28.3961620330811,54.1868286132813,0,0,1439.038
645,دژكرد,17,30.7136135101318,51.9579429626465,0,0,1224.646
646,دوبرجي,17,28.3073406219482,55.1925048828125,0,0,1322.983
647,دوزه,17,28.7010860443115,52.9584922790527,0,0,1494.222
648,دهرم,17,28.493293762207,52.3042221069336,0,0,1530.428
649,رامجرد,17,30.0748805999756,52.5926361083984,0,0,1261.155
650,رونيز,17,29.1920566558838,53.769401550293,0,0,1320.756
651,زاهدشهر,17,28.7466297149658,53.8046493530273,0,0,1389.777
652,زرقان,17,29.773832321167,52.7217788696289,0,0,1313.417
653,سده,17,30.710578918457,52.1761169433594,0,0,1201.477
654,سروستان,17,29.2630271911621,53.2238731384277,0,0,1381.108
655,سعادت شهر,17,30.0742740631104,53.1361312866211,0,0,1234.531
656,سورمق,17,31.0344886779785,52.8395576477051,0,0,1103.944
657,سيدان,17,30.0044631958008,53.0056762695313,0,0,1276.774
658,ششده,17,28.9496421813965,53.9957580566406,0,0,1336.242
659,شهر جديد صدرا,17,29.8010139465332,52.5084953308106,0,0,1340.731
660,شهرپير,17,28.311695098877,54.3350334167481,0,0,1449.717
661,شيراز,17,29.5568904876709,52.5291213989258,0,0,1354.415
662,صغاد,17,31.1910705566406,52.5154342651367,0,0,1143.246
663,صفاشهر,17,30.6136665344238,53.1987228393555,0,0,1163.627
664,علامرودشت,17,27.6244621276855,53.000659942627,0,0,1701.122
665,عمادده,17,27.4446449279785,53.8618354797363,0,0,1545.508
666,فدامي,17,28.2168083190918,55.1351432800293,0,0,1317.938
667,فراشبند,17,28.8588905334473,52.09375,0,0,1510.006
668,فسا,17,28.9197254180908,53.6376914978027,0,0,1361.791
669,فيروزآباد,17,28.84885597229,52.5698013305664,0,0,1454.862
670,قادرآباد,17,30.2806663513184,53.2550888061523,0,0,1211.043
671,قائميه,17,29.8443164825439,51.5911064147949,0,0,1465.778
672,قطب آباد,17,28.6406745910645,53.6394729614258,0,0,1432.26
673,قطرويه,17,29.1460361480713,54.7035522460938,0,0,1198.841
674,قير,17,28.4746170043945,53.0439033508301,0,0,1526.618
675,كارزين,17,28.4087162017822,53.1085243225098,0,0,1539.508
676,كازرون,17,29.6037464141846,51.651798248291,0,0,1476.953
677,كامفيروز,17,30.3219833374023,52.1942939758301,0,0,1265.318
678,كره اي,17,30.0297260284424,53.7157554626465,0,0,1268.812
679,كنارتخته,17,29.5339126586914,51.3949165344238,0,0,1520.061
680,كوار,17,29.1960849761963,52.6867179870606,0,0,1397.081
681,كوهنجان,17,29.2311305999756,52.9561920166016,0,0,1411.007
682,گراش,17,27.667142868042,54.1450347900391,0,0,1478.065
683,گله دار,17,27.6488075256348,52.6602058410645,0,0,1641.77
684,لار,17,27.6426486968994,54.3203582763672,0,0,1455.277
685,لامرد,17,27.3299674987793,53.1879196166992,0,0,1709.131
686,لپوئي,17,29.799072265625,52.6520729064941,0,0,1320.212
687,لطيفي,17,27.6899585723877,54.3867034912109,0,0,1444.646
688,مبارك آباد,17,28.3601818084717,53.3287010192871,0,0,1523.752
689,مرودشت,17,29.8595104217529,52.8102722167969,0,0,1298.81
690,مشكان,17,29.4728164672852,54.3459129333496,0,0,1255.247
691,مصيري,17,30.2443103790283,51.5289039611816,0,0,1366.544
692,مهر,17,27.5504589080811,52.8838500976563,0,0,1666.709
693,ميمند,17,28.8682880401611,52.7509155273438,0,0,1459.87
694,نوبندگان,17,28.8538227081299,53.8259201049805,0,0,1380.507
695,نوجين,17,29.125373840332,52.0134887695313,0,0,1544.671
696,نودان,17,29.8016605377197,51.6942291259766,0,0,1457.08
697,نورآباد,17,30.1148166656494,51.5222511291504,0,0,1383.58
698,ني ريز,17,29.1979217529297,54.3226547241211,0,0,1252.126
699,وراوي,17,27.4650325775147,53.0521850585938,0,0,1691.493
700,هماشهر,17,30.1154232025147,52.0876770019531,0,0,1376.2
701,ارداق,18,36.0533561706543,49.8244171142578,0,0,1115.264
702,اسفرورين,18,35.9350814819336,49.7502861022949,0,0,1075.116
703,اقباليه,18,36.2320861816406,49.9266624450684,0,0,1084.566
704,الوند,18,36.1703414916992,50.0741539001465,0,0,1076.525
705,آبگرم,18,35.7574005126953,49.287296295166,0,0,1113.015
706,آبيك,18,36.0398902893066,50.5296974182129,0,0,1027.059
707,آوج,18,35.5797805786133,49.2218399047852,0,0,1136.719
708,بوئين زهرا,18,35.7571525573731,50.0619697570801,0,0,1035.325
709,بيدستان,18,36.2312660217285,50.1214027404785,0,0,1064.739
710,تاكستان,18,36.071418762207,49.696159362793,0,0,1111.615
711,خاكعلي,18,36.1288909912109,50.1757774353027,0,0,1050.938
712,خرمدشت,18,35.9298439025879,49.5117454528809,0,0,1095.316
713,دانسفهان,18,35.8116264343262,49.7436027526856,0,0,1066.326
714,رازميان,18,36.536491394043,50.2123374938965,0,0,1123.246
715,سگزآباد,18,35.7641296386719,49.9394721984863,0,0,1046.274
716,سيردان,18,36.6515922546387,49.1882133483887,0,0,1209.929
717,شال,18,35.8975982666016,49.768367767334,0,0,1071.185
718,شريفيه,18,36.2034111022949,50.1513442993164,0,0,1063.381
719,ضياءآباد,18,35.9955062866211,49.4493370056152,0,0,1105.411
720,قزوين,18,36.2817459106445,50.0019683837891,0,0,1076.551
721,كوهين,18,36.3728675842285,49.6581077575684,0,0,1114.353
722,محمديه,18,36.2240180969238,50.1825866699219,0,0,1058.999
723,محمودآبادنمونه,18,36.2904205322266,49.9026412963867,0,0,1091.094
724,معلم كلايه,18,36.4472770690918,50.4781951904297,0,0,1143.181
725,نرجه,18,35.9920234680176,49.6203308105469,0,0,1096.885
726,جعفريه,19,34.7746391296387,50.5166053771973,0,0,995.028
727,دستجرد,19,34.552848815918,50.248218536377,0,0,1029.95
728,سلفچگان,19,34.4782638549805,50.4576263427734,0,0,1003.22
729,قم,19,34.5939483642578,50.8742904663086,0,0,965.748
730,قنوات,19,34.611011505127,51.0254707336426,0,0,960.824
731,كهك,19,34.3929252624512,50.8641090393066,0,0,986.579
732,آرمرده,20,35.9293937683106,45.7967300415039,0,0,1550.084
733,بابارشاني,20,35.6742248535156,47.7974739074707,0,0,1286.024
734,بانه,20,35.9957313537598,45.888614654541,0,0,1534.941
735,بلبان آباد,20,35.1371421813965,47.3209915161133,0,0,1329.551
736,بوئين سفلي,20,35.9389801025391,45.9362525939941,0,0,1543.361
737,بيجار,20,35.8828620910645,47.6182594299316,0,0,1318.212
738,چناره,20,35.6301193237305,46.3091011047363,0,0,1473.61
739,دزج,20,35.0647163391113,47.963924407959,0,0,1262.339
740,دلبران,20,35.2384033203125,47.9885711669922,0,0,1285.505
741,دهگلان,20,35.2783355712891,47.4189033508301,0,0,1311.061
742,ديواندره,20,35.9124908447266,47.0249061584473,0,0,1381.86
743,زرينه,20,36.0607261657715,46.9187660217285,0,0,1404.584
744,سروآباد,20,35.3117980957031,46.3669891357422,0,0,1457.371
745,سريش آباد,20,35.2488136291504,47.778491973877,0,0,1282.525
746,سقز,20,36.2441177368164,46.2729225158691,0,0,1475.257
747,سنندج,20,35.2403144836426,47.0064086914063,0,0,1368.081
748,شويشه,20,35.352912902832,46.6784553527832,0,0,1409.839
749,صاحب,20,36.2030944824219,46.461856842041,0,0,1456.062
750,قروه,20,35.1636009216309,47.8100433349609,0,0,1272.533
751,كامياران,20,34.7971687316895,46.9394645690918,0,0,1428.104
752,كاني دينار,20,35.4675331115723,46.2033386230469,0,0,1480.701
753,كاني سور,20,36.0590591430664,45.7488212585449,0,0,1550.796
754,مريوان,20,35.5178718566895,46.1809692382813,0,0,1472.734
755,موچش,20,35.0591430664063,47.1544876098633,0,0,1350.858
756,ياسوكند,20,36.2833938598633,47.7468147277832,0,0,1361.431
757,اختيارآباد,21,30.3197231292725,56.9182777404785,0,0,910.867
758,ارزوئيه,21,28.4579296112061,56.363525390625,0,0,1176.632
759,امين شهر,21,30.8438282012939,55.3393669128418,0,0,1079.047
760,انار,21,30.8725490570068,55.2716293334961,0,0,1063.473
761,اندوهجرد,21,30.2310314178467,57.7540626525879,0,0,1001.359
762,باغين,21,30.1893825531006,56.8132247924805,0,0,931.778
763,بافت,21,29.2321758270264,56.5969924926758,0,0,1065.844
764,بردسير,21,29.9241008758545,56.5787696838379,0,0,971.235
765,بروات,21,29.0470066070557,58.4085884094238,0,0,1108.016
766,بزنجان,21,29.2548351287842,56.6942825317383,0,0,1055.848
767,بم,21,29.067798614502,58.3486175537109,0,0,1101.216
768,بهرمان,21,30.904317855835,55.7273864746094,0,0,967.821
769,پاريز,21,29.8726215362549,55.7505416870117,0,0,1089.686
770,جبالبارز,21,28.9060211181641,57.8827476501465,0,0,1102.755
771,جوپار,21,30.0565242767334,57.1124038696289,0,0,938.495
772,جوزم,21,30.5151195526123,55.0317344665527,0,0,1112.791
773,جيرفت,21,28.6803932189941,57.7419738769531,0,0,1142.266
774,چترود,21,30.6010189056397,56.9091682434082,0,0,871.179
775,خاتون آباد,21,29.9971446990967,55.4199447631836,0,0,1101.431
776,خانوك,21,30.7177200317383,56.7755432128906,0,0,886.117
777,خورسند,21,30.1534004211426,55.0875816345215,0,0,1142.87
778,درب بهشت,21,29.2335548400879,57.3366737365723,0,0,1062.297
779,دوساري,21,28.423189163208,57.9446907043457,0,0,1182.024
780,دهج,21,30.6871662139893,54.8781776428223,0,0,1078.202
781,رابر,21,29.289909362793,56.912956237793,0,0,1080.576
782,راور,21,31.2422618865967,56.7984237670898,0,0,777.668
783,راين,21,29.5988807678223,57.435115814209,0,0,1013.369
784,رفسنجان,21,30.3752765655518,55.9876480102539,0,0,1016.209
785,رودبار,21,28.0208168029785,57.9945793151856,0,0,1229.437
786,ريحان شهر,21,30.7513370513916,56.7360801696777,0,0,881.08
787,زرند,21,30.8117275238037,56.551872253418,0,0,0
788,زنگي آباد,21,30.41259765625,56.9147338867188,0,0,896.053
789,زيدآباد,21,29.5985698699951,55.5349082946777,0,0,1107.269
790,سرچشمه,21,29.9973373413086,55.7947235107422,0,0,1063.125
791,سيرجان,21,29.4376163482666,55.6749076843262,0,0,1085.045
792,شهداد,21,30.4166812896729,57.7017097473145,0,0,1004.084
793,شهربابك,21,30.1183261871338,55.1207885742188,0,0,1137.568
794,صفائيه,21,30.827823638916,55.8113784790039,0,0,956.04
795,عنبرآباد,21,28.4789180755615,57.8425254821777,0,0,1176.249
796,فارياب,21,28.0970840454102,57.2282791137695,0,0,1246.762
797,فهرج,21,28.9478435516357,58.8851127624512,0,0,1157.811
798,قلعه گنج,21,27.5163536071777,57.8829689025879,0,0,1308.28
799,كاظم آباد,21,30.5605564117432,56.8436584472656,0,0,879.067
800,كرمان,21,30.2814025878906,57.0641822814941,0,0,906.826
801,كشكوئيه,21,30.5305233001709,55.6446189880371,0,0,1063.335
802,كوهبنان,21,31.4131984710693,56.2793350219727,0,0,834.202
803,كهنوج,21,27.9224548339844,57.6970748901367,0,0,1240.772
804,كيانشهر,21,31.1560039520264,56.3811111450195,0,0,858.416
805,گلباف,21,29.8844203948975,57.731086730957,0,0,1011.363
806,گلزار,21,29.7112483978272,57.0401115417481,0,0,981.333
807,لاله زار,21,29.5229511260986,56.8163528442383,0,0,1031.037
808,ماهان,21,30.0579090118408,57.2897453308106,0,0,945.148
809,محمد آباد ,21,28.6416683197022,59.0174674987793,0,0,1184.729
810,محي آباد,21,30.0716743469238,57.230110168457,0,0,941.362
811,مردهك,21,28.3499088287354,58.1599197387695,0,0,1214.828
812,منوجان,21,27.4036674499512,57.4967575073242,0,0,1306.744
813,نجف شهر,21,29.3912334442139,55.7205696105957,0,0,1091.312
814,نرماشير,21,28.9515285491943,58.699405670166,0,0,1137.237
815,نظام شهر,21,28.9130706787109,58.5514335632324,0,0,1132.528
816,نگار,21,29.8572177886963,56.8029174804688,0,0,974.987
817,نودژ,21,27.527156829834,57.4494247436523,0,0,1305.155
818,هجدك,21,30.7576065063477,56.9962043762207,0,0,844.475
819,هماشهر ,21,29.6626358032227,55.8096656799316,0,0,1061.081
820,يزدان شهر,21,30.86643409729,56.3758926391602,0,0,883.17
821,ازگله,22,34.8334007263184,45.8419189453125,0,0,1578.462
822,اسلام آبادغرب,22,34.1096153259277,46.5205688476563,0,0,1444.664
823,باينگان,22,34.9814071655273,46.2704124450684,0,0,1494.904
824,بيستون,22,34.3945846557617,47.4476852416992,0,0,1339.171
825,پاوه,22,35.0266914367676,46.3669662475586,0,0,1487.67
826,تازه آباد,22,34.7386207580566,46.1516151428223,0,0,1511.497
827,جوانرود,22,34.8061637878418,46.4921913146973,0,0,1458.946
828,حميل,22,33.9380111694336,46.7728652954102,0,0,1465.478
829,رباط,22,34.2685928344727,46.8064117431641,0,0,1406.45
830,روانسر,22,34.716178894043,46.6560707092285,0,0,1435.389
831,سرپل ذهاب,22,34.4486808776856,45.8630256652832,0,0,1523.775
832,سرمست,22,34.0269546508789,46.3317527770996,0,0,1470.593
833,سطر,22,34.8133888244629,47.4608764648438,0,0,1310.672
834,سنقر,22,34.7627067565918,47.5996322631836,0,0,1299.708
835,سومار,22,33.865535736084,45.6409721374512,0,0,1568.989
836,شاهو,22,34.9307899475098,46.461109161377,0,0,1474.261
837,صحنه,22,34.4755172729492,47.6852188110352,0,0,1311.165
838,قصرشيرين,22,34.5075302124023,45.5892906188965,0,0,1555.072
839,كرمانشاه,22,34.314094543457,47.0971412658691,0,0,1376.428
840,كرندغرب,22,34.2787055969238,46.2320365905762,0,0,1480.021
841,كنگاور,22,34.5016670227051,47.9620208740234,0,0,1278.587
842,كوزران,22,34.4957618713379,46.6020736694336,0,0,1428.071
843,گهواره,22,34.3440818786621,46.4158592224121,0,0,1472.478
844,گيلانغرب,22,34.1403198242188,45.9247665405273,0,0,1523.32
845,ميان راهان,22,34.5838813781738,47.4446678161621,0,0,1366.592
846,نودشه,22,35.1805038452148,46.2534065246582,0,0,1524.974
847,نوسود,22,35.1575126647949,46.2065391540527,0,0,1525.667
848,هرسين,22,34.2700042724609,47.5803756713867,0,0,1368.446
849,هلشي,22,34.1101531982422,47.0904312133789,0,0,1405.047
850,باشت,23,30.3621273040772,51.1563262939453,0,0,1398.223
851,پاتاوه,23,30.9525718688965,51.270751953125,0,0,1329.989
852,چرام,23,30.7554721832275,50.7468414306641,0,0,1473.224
853,چيتاب,23,30.7949180603027,51.3247375488281,0,0,1322.482
854,دوگنبدان,23,30.3634624481201,50.7830123901367,0,0,1440.646
855,دهدشت,23,30.7952117919922,50.5633506774902,0,0,1453.897
856,ديشموك,23,31.2985229492188,50.4017677307129,0,0,1482.679
857,سوق,23,30.8556518554688,50.4598388671875,0,0,1460.926
858,سي سخت,23,30.8575649261475,51.4587287902832,0,0,1312.049
859,قلعه رئيسي,23,31.1903476715088,50.4440116882324,0,0,1461.724
860,گراب سفلي,23,30.9445819854736,50.8993682861328,0,0,1376.331
861,لنده,23,30.9826679229736,50.4196891784668,0,0,1482.272
862,ليكك,23,30.8971843719482,50.0928344726563,0,0,1546.894
863,مادوان,23,30.7121486663818,51.5545654296875,0,0,1285.565
864,مارگون,23,30.9933414459229,51.0781402587891,0,0,1360.347
865,ياسوج,23,30.6567630767822,51.5824241638184,0,0,1289.215
866,انبارآلوم,24,37.1327247619629,54.6186332702637,0,0,573.467
867,اينچه برون,24,37.4538345336914,54.7190017700195,0,0,553.661
868,آزادشهر,24,37.0866317749023,55.1694793701172,0,0,497.764
869,آق قلا,24,37.0095405578613,54.4567451477051,0,0,576.139
870,بندرگز,24,36.7540588378906,53.9507141113281,0,0,616.449
871,تركمن,24,36.9030113220215,54.0750198364258,0,0,615.58
872,جلين,24,36.8546447753906,54.5367431640625,0,0,561.968
873,خان ببين,24,37.0126800537109,54.9878158569336,0,0,515.94
874,دلند,24,37.0352478027344,55.0422592163086,0,0,510.325
875,راميان,24,37.0184516906738,55.1420783996582,0,0,506.916
876,سرخنكلاته,24,36.8829803466797,54.569393157959,0,0,563.073
877,سيمين شهر,24,37.0112991333008,54.2320899963379,0,0,599.13
878,علي آباد,24,36.9124031066895,54.8577003479004,0,0,533.492
879,فاضل آباد,24,36.8994674682617,54.7512702941895,0,0,542.322
880,كردكوي,24,36.7945251464844,54.1099166870117,0,0,602.187
881,كلاله,24,37.3811225891113,55.4916152954102,0,0,465.212
882,گاليكش,24,37.2704048156738,55.4310722351074,0,0,462.407
883,گرگان,24,36.8451995849609,54.4287986755371,0,0,571.953
884,گميش تپه,24,37.0716590881348,54.0754203796387,0,0,629.491
885,گنبد كاووس,24,37.2478141784668,55.1757392883301,0,0,489.035
886,مراوه تپه,24,37.9047088623047,55.961727142334,0,0,450.201
887,مينودشت,24,37.2296600341797,55.3750877380371,0,0,473.28
888,نگين شهر,24,37.1390571594238,55.1641464233398,0,0,500.941
889,نوده خاندوز,24,37.0762672424316,55.2622222900391,0,0,505.431
890,نوكنده,24,36.7397651672363,53.9131202697754,0,0,621.735
891,احمدسرگوراب,25,37.1335983276367,49.3679275512695,0,0,1269.022
892,اسالم,25,37.7357025146484,48.9458732604981,0,0,1340.962
893,اطاقور,25,37.1101684570313,50.1138687133789,0,0,1052.82
894,املش,25,37.0872116088867,50.1910285949707,0,0,1044.874
895,آستارا,25,38.3871803283691,48.8692474365234,0,0,1417.088
896,آستانه اشرفيه,25,37.2635917663574,49.9449081420898,0,0,1069.911
897,بازارجمعه,25,37.4068183898926,49.1182670593262,0,0,1300.954
898,بره سر,25,36.776725769043,49.7524108886719,0,0,1220.61
899,بندرانزلي,25,37.4667053222656,49.4626998901367,0,0,1300.5
900,پره سر,25,37.6034317016602,49.0693817138672,0,0,1320.116
901,توتكابن,25,36.8939094543457,49.5256690979004,0,0,1203.279
902,جيرنده,25,36.7013282775879,49.7905616760254,0,0,1202.006
903,چابكسر,25,36.9746398925781,50.5547218322754,0,0,1003.69
904,چاف وچمخاله,25,37.2164649963379,50.2256584167481,0,0,1053.449
905,چوبر,25,37.0896263122559,49.4218254089356,0,0,1276.019
906,حويق,25,38.1542205810547,48.8903465270996,0,0,1390.379
907,خشكبيجار,25,37.3741455078125,49.7586975097656,0,0,1267.095
908,خمام,25,37.3821525573731,49.6518440246582,0,0,1266.768
909,ديلمان,25,36.8835411071777,49.9071426391602,0,0,1240.873
910,رانكوه,25,37.0497741699219,50.2364845275879,0,0,1041.067
911,رحيم آباد,25,37.0331649780273,50.3370513916016,0,0,1028.665
912,رستم آباد,25,36.8840713500977,49.4915733337402,0,0,1207.059
913,رشت,25,37.2841453552246,49.5904083251953,0,0,1253.679
914,رضوانشهر ,25,37.5505561828613,49.1397018432617,0,0,1310.06
915,رودبار ,25,36.8066596984863,49.4189758300781,0,0,1187.325
916,رودبنه,25,37.256591796875,50.0082054138184,0,0,1066.07
917,رودسر,25,37.1326484680176,50.3002548217773,0,0,1031.534
918,سنگر,25,37.179141998291,49.6977157592773,0,0,1241.755
919,سياهكل,25,37.1510925292969,49.872371673584,0,0,1257.928
920,شفت,25,37.1638145446777,49.4030914306641,0,0,1264.615
921,شلمان,25,37.1599006652832,50.2166519165039,0,0,1040.157
922,صومعه سرا,25,37.3028335571289,49.3201217651367,0,0,1276.18
923,فومن,25,37.225700378418,49.3110008239746,0,0,1269.474
924,كلاچاي,25,37.0746803283691,50.3994026184082,0,0,1019.831
925,كوچصفهان,25,37.2771644592285,49.7681388854981,0,0,1256.004
926,كومله,25,37.1506271362305,50.1761817932129,0,0,1047.792
927,كياشهر,25,37.4223365783691,49.930534362793,0,0,1090.724
928,گوراب زرميخ,25,37.3001594543457,49.2186317443848,0,0,1282.076
929,لاهيجان,25,37.202392578125,50.0108184814453,0,0,1060.5
930,لشت نشاء,25,37.3623886108398,49.8618431091309,0,0,1086.801
931,لنگرود,25,37.1956748962402,50.1474266052246,0,0,1047.355
932,لوشان,25,36.6312561035156,49.5147705078125,0,0,1162.59
933,لولمان,25,37.2523498535156,49.8250846862793,0,0,1080.871
934,لوندويل,25,38.309268951416,48.8634910583496,0,0,1409.108
935,ليسار,25,37.9374885559082,48.9162368774414,0,0,1366.324
936,ماسال,25,37.3655014038086,49.1317672729492,0,0,1297.553
937,ماسوله,25,37.1560363769531,48.9893798828125,0,0,1302.807
938,مرجقل,25,37.2835998535156,49.3794860839844,0,0,1275.335
939,منجيل,25,36.7412986755371,49.4185409545898,0,0,1180.683
940,واجارگاه,25,37.0417518615723,50.4137382507324,0,0,1021.363
941,هشتپر,25,37.7955589294434,48.9043807983398,0,0,1347.395
942,ازنا,26,33.4573287963867,49.4542121887207,0,0,1178.78
943,اشترينان,26,34.0174064636231,48.6421852111816,0,0,1223.607
944,الشتر,26,33.8614082336426,48.259765625,0,0,1317.509
945,اليگودرز,26,33.4015464782715,49.6931686401367,0,0,1200.319
946,بروجرد,26,33.8982925415039,48.7546806335449,0,0,1203.482
947,پلدختر,26,33.1529273986816,47.7143173217773,0,0,1383.951
948,چالانچولان,26,33.6646156311035,48.9066581726074,0,0,1221.535
949,چغلوندي,26,33.6491737365723,48.5595436096191,0,0,1241.984
950,چقابل,26,33.2818489074707,47.5080184936523,0,0,1406.859
951,خرم آباد,26,33.4569625854492,48.3489112854004,0,0,1272.429
952,درب گنبد,26,33.6907615661621,47.1482963562012,0,0,1425.528
953,دورود,26,33.4942016601563,49.0568084716797,0,0,1220.003
954,زاغه,26,33.4957275390625,48.7075462341309,0,0,1257.896
955,سپيددشت,26,33.2197761535645,48.8839111328125,0,0,1332.545
956,سراب دوره,26,33.5631103515625,48.0200538635254,0,0,1305.85
957,شول آباد,26,33.1855888366699,49.1909103393555,0,0,1293.504
958,فيروز آباد,26,33.8990325927734,48.1031074523926,0,0,1325.948
959,كوناني,26,33.4024696350098,47.325439453125,0,0,1401.053
960,كوهدشت,26,33.5341529846191,47.6084632873535,0,0,1360.254
961,گراب,26,33.4741363525391,47.2369995117188,0,0,1401.373
962,معمولان,26,33.3794097900391,47.9618835449219,0,0,1331.806
963,مؤمن آباد,26,33.5847854614258,49.518482208252,0,0,1168.072
964,نور آباد,26,34.0703964233398,47.9731941223145,0,0,1299.777
965,ويسيان,26,33.486198425293,48.0303382873535,0,0,1307.253
966,هفت چشمه,26,34.2040557861328,47.7596626281738,0,0,1330.097
967,اميركلا,27,36.5987815856934,52.6627388000488,0,0,784.876
968,ايزدشهر,27,36.6012916564941,52.1393775939941,0,0,839.252
969,آلاشت,27,36.0663604736328,52.8379135131836,0,0,838.977
970,آمل,27,36.4774551391602,52.3558349609375,0,0,809.461
971,بابل,27,36.5211944580078,52.6759300231934,0,0,779.845
972,بابلسر,27,36.6989364624023,52.6493377685547,0,0,791.14
973,بلده,27,36.2012214660645,51.8061027526856,0,0,902.956
974,بهشهر,27,36.6955413818359,53.5346412658691,0,0,656.463
975,بهنمير,27,36.6702041625977,52.7622756958008,0,0,778.682
976,پل سفيد,27,36.1136665344238,53.0577507019043,0,0,805.954
977,پول,27,36.3955802917481,51.5897941589356,0,0,926.681
978,تنكابن,27,36.8151397705078,50.8743629455566,0,0,966.216
979,جويبار,27,36.6410064697266,52.8998260498047,0,0,763.08
980,چالوس,27,36.6539878845215,51.4244689941406,0,0,910.732
981,چمستان,27,36.4823989868164,52.1211318969727,0,0,835.231
982,خرم آباد ,27,36.7863121032715,50.867374420166,0,0,969.338
983,خليل شهر,27,36.7017631530762,53.6395721435547,0,0,646.171
984,خوش رودپي,27,36.3714599609375,52.5656929016113,0,0,804.527
985,دابودشت,27,36.4806632995606,52.4520378112793,0,0,799.743
986,رامسر,27,36.9159889221191,50.6623344421387,0,0,989.065
987,رستمكلا,27,36.6780815124512,53.4260444641113,0,0,666.921
988,رويان,27,36.5703659057617,51.9688606262207,0,0,858.818
989,رينه,27,35.8819885253906,52.1697502136231,0,0,892.204
990,زرگر محله,27,36.5161857604981,52.5744132995606,0,0,790.111
991,زيرآب,27,36.1796417236328,52.9746856689453,0,0,797.999
992,ساري,27,36.5668830871582,53.0600166320801,0,0,741.488
993,سرخرود,27,36.6765747070313,52.4567909240723,0,0,810.912
994,سلمان شهر,27,36.6990242004395,51.1999549865723,0,0,935.825
995,سورك,27,36.593921661377,53.2116737365723,0,0,688.234
996,شيرگاه,27,36.2899513244629,52.8809509277344,0,0,782.153
997,شيرود,27,36.8479499816895,50.7905311584473,0,0,976.251
998,عباس آباد,27,36.7212333679199,51.1159706115723,0,0,942.729
999,فريدونكنار,27,36.682804107666,52.5166854858398,0,0,803.269
1000,فريم,27,36.174186706543,53.2669219970703,0,0,751.987
1001,قائم شهر,27,36.4643516540527,52.8650817871094,0,0,759.319
1002,كتالم وسادات شهر,27,36.8780632019043,50.7169723510742,0,0,983.473
1003,كلارآباد,27,36.6914291381836,51.2626266479492,0,0,931.89
1004,كلاردشت,27,36.4936943054199,51.1449546813965,0,0,960.918
1005,كله بست,27,36.6352348327637,52.6267356872559,0,0,793.845
1006,كوهي خيل,27,36.6858100891113,52.9069900512695,0,0,767.311
1007,كياسر,27,36.2379150390625,53.5394058227539,0,0,671.365
1008,كياكلا,27,36.5818748474121,52.8148193359375,0,0,767.744
1009,گتاب,27,36.4165954589844,52.6565132141113,0,0,793.19
1010,گزنك,27,35.9029426574707,52.2192497253418,0,0,884.149
1011,گلوگاه,27,36.7251358032227,53.8110504150391,0,0,630.227
1012,محمود آباد,27,36.6314392089844,52.252368927002,0,0,828.542
1013,مرزن آباد,27,36.4463157653809,51.2955932617188,0,0,938.364
1014,مرزيكلا,27,36.3640480041504,52.7358512878418,0,0,796.9
1015,نشتارود,27,36.7482299804688,51.0351104736328,0,0,949.357
1016,نكا,27,36.6518745422363,53.2936477661133,0,0,678.157
1017,نور,27,36.5730743408203,52.0158805847168,0,0,850.912
1018,نوشهر,27,36.6470832824707,51.4998435974121,0,0,902.801
1019,اراك,28,34.093448638916,49.7220993041992,0,0,1089.265
1020,آستانه,28,33.8884582519531,49.3520202636719,0,0,1134.05
1021,آشتيان,28,34.5235900878906,50.0057945251465,0,0,1057.604
1022,پرندك,28,35.3595085144043,50.6805763244629,0,0,961.602
1023,تفرش,28,34.6850204467773,50.0226287841797,0,0,1065.248
1024,توره,28,34.0461235046387,49.2887992858887,0,0,1136.857
1025,جاورسيان,28,34.2566108703613,49.3269882202148,0,0,1155.68
1026,خشكرود,28,35.3995666503906,50.3356056213379,0,0,1032.664
1027,خمين,28,33.6410751342773,50.0803070068359,0,0,1145.07
1028,خنداب,28,34.3834495544434,49.1889419555664,0,0,1179.71
1029,داودآباد,28,34.2934913635254,49.8550987243652,0,0,1079.512
1030,دليجان,28,33.9903564453125,50.6816558837891,0,0,1053.091
1031,رازقان,28,35.3310890197754,49.955924987793,0,0,1053.456
1032,زاويه,28,35.3721046447754,50.5703544616699,0,0,970.386
1033,ساروق,28,34.4079322814941,49.5076866149902,0,0,1110.319
1034,ساوه,28,35.025333404541,50.3649215698242,0,0,1012.85
1035,سنجان,28,34.0509986877441,49.6242637634277,0,0,1100.318
1036,شازند,28,33.9337005615234,49.4108772277832,0,0,1125.699
1037,شهرجديدمهاجران,28,34.0518798828125,49.4342803955078,0,0,1124.889
1038,غرق آباد,28,35.1010589599609,49.8305435180664,0,0,1054.314
1039,فرمهين,28,34.4960289001465,49.6843719482422,0,0,1096.36
1040,قورچي باشي,28,33.6747779846191,49.8774337768555,0,0,1162.482
1041,كرهرود,28,34.0637016296387,49.6500358581543,0,0,1095.748
1042,كميجان,28,34.719123840332,49.3223342895508,0,0,1201.182
1043,مأمونيه,28,35.3109397888184,50.4972496032715,0,0,980.308
1044,محلات,28,33.9083824157715,50.4541435241699,0,0,1080.663
1045,ميلاجرد,28,34.6212730407715,49.2095832824707,0,0,1199.1
1046,نراق,28,34.0117111206055,50.8379707336426,0,0,1089.398
1047,نوبران,28,35.1299438476563,49.709228515625,0,0,1066.892
1048,نيمور,28,33.8869171142578,50.5736312866211,0,0,1067.705
1049,هندودر,28,33.7794609069824,49.2308654785156,0,0,1159.186
1050,ابوموسي,29,25.8834629058838,55.0298538208008,0,0,1578.104
1051,بستك,29,27.1946144104004,54.3667945861816,0,0,1611.315
1052,بندرجاسك,29,25.6569957733154,57.8006324768066,0,0,1625.316
1053,بندرچارك,29,26.7334976196289,54.2734146118164,0,0,1652.386
1054,بندرعباس,29,27.1926517486572,56.2914657592773,0,0,1391.298
1055,بندرلنگه,29,26.5475330352783,54.8889236450195,0,0,1567.912
1056,بيكاه,29,27.3489151000977,57.1773262023926,0,0,1349.533
1057,پارسيان,29,27.2039394378662,53.042724609375,0,0,1738.623
1058,تخت,29,27.5003719329834,56.6346778869629,0,0,1431.883
1059,جناح,29,27.0181541442871,54.2859954833984,0,0,1644.566
1060,حاجي آباد  ,29,28.309211730957,55.9016189575195,0,0,1223.639
1061,خمير,29,26.9512062072754,55.5879020690918,0,0,1475.017
1062,درگهان,29,26.9641761779785,56.0662231445313,0,0,1507.019
1063,دهبارز,29,27.4419956207275,57.1975021362305,0,0,1337.219
1064,رويدر,29,27.4655685424805,55.417537689209,0,0,1505.079
1065,زيارتعلي,29,27.7399959564209,57.2263412475586,0,0,1298.783
1066,سردشت بشاگرد,29,26.4551849365234,57.9012184143066,0,0,1449.627
1067,سرگز,29,27.9431838989258,56.6569786071777,0,0,1388.608
1068,سندرك,29,26.836784362793,57.4265403747559,0,0,1458.156
1069,سوزا,29,26.7803153991699,56.0650024414063,0,0,1517.414
1070,سيريك,29,26.521110534668,57.1092872619629,0,0,1477.627
1071,فارغان,29,28.0091457366943,56.252197265625,0,0,1297.984
1072,فين,29,27.6335906982422,55.8821067810059,0,0,1367.5
1073,قشم,29,26.9489421844482,56.2728805541992,0,0,1529.212
1074,قلعه قاضي,29,27.4446678161621,56.5446128845215,0,0,1425.662
1075,كنگ,29,26.5961799621582,54.9365730285645,0,0,1560.765
1076,كوشكنار,29,27.2517395019531,52.867359161377,0,0,1727.631
1077,كيش,29,26.5334243774414,53.9738464355469,0,0,1721.037
1078,گوهران,29,26.5946273803711,57.8975868225098,0,0,1431.046
1079,ميناب,29,27.0975875854492,57.0741500854492,0,0,1404.329
1080,هرمز,29,27.0911407470703,56.4573974609375,0,0,0
1081,هشتبندي,29,27.1645679473877,57.4512367248535,0,0,1340.062
1082,ازندريان,30,34.5016326904297,48.6929626464844,0,0,1249.842
1083,اسدآباد,30,34.7853584289551,48.1216621398926,0,0,1242.137
1084,برزول,30,34.2135581970215,48.2609710693359,0,0,1254.052
1085,بهار,30,34.8907051086426,48.4408836364746,0,0,1205.863
1086,تويسركان,30,34.5490417480469,48.4481163024902,0,0,1282.069
1087,جورقان,30,34.8818054199219,48.5527992248535,0,0,1186.144
1088,جوكار,30,34.4316062927246,48.6860961914063,0,0,1253.479
1089,دمق,30,35.4370346069336,48.8220558166504,0,0,1186.418
1090,رزن,30,35.3906478881836,49.0351142883301,0,0,1164.135
1091,زنگنه,30,34.1548385620117,49.0084114074707,0,0,1170.259
1092,سامن,30,34.2092552185059,48.7035446166992,0,0,1210.195
1093,سركان,30,34.594482421875,48.4478874206543,0,0,1288.5
1094,شيرين سو,30,35.4927253723145,48.450611114502,0,0,1211.478
1095,صالح آباد   ,30,34.9220886230469,48.343074798584,0,0,1213.349
1096,فامنين,30,35.1153755187988,48.9722671508789,0,0,1133.819
1097,فرسفج,30,34.4860610961914,48.2883186340332,0,0,1304.434
1098,فيروزان,30,34.3605575561523,48.1161575317383,0,0,1272.129
1099,قروه در جزين,30,35.3119659423828,49.1000518798828,0,0,1148.322
1100,قهاوند,30,34.8583946228027,49.003360748291,0,0,1162.494
1101,كبودرآهنگ,30,35.2092437744141,48.7248687744141,0,0,1169.549
1102,گل تپه,30,35.2201385498047,48.2053947448731,0,0,1220.388
1103,گيان,30,34.1770248413086,48.244068145752,0,0,1259.237
1104,لالجين,30,34.9735946655273,48.4783973693848,0,0,1187.344
1105,مريانج,30,34.8318939208984,48.4632682800293,0,0,1198.615
1106,ملاير,30,34.2973175048828,48.8165473937988,0,0,1196.125
1107,نهاوند,30,34.1682090759277,48.3755073547363,0,0,1244.931
1108,همدان,30,34.7918128967285,48.5261459350586,0,0,1195.485
1109,ابركوه,31,31.1302242279053,53.2794494628906,0,0,1059.239
1110,احمدآباد,31,32.357105255127,53.9913711547852,0,0,932.049
1111,اردكان ,31,32.3069229125977,54.0185623168945,0,0,922.116
1112,اشكذر,31,32.000244140625,54.2068786621094,0,0,895.592
1113,بافق,31,31.6040916442871,55.3963813781738,0,0,962.813
1114,بفروئيه,31,32.2723083496094,53.9968109130859,0,0,920.806
1115,بهاباد,31,31.8679790496826,56.0264892578125,0,0,881.38
1116,تفت,31,31.7426567077637,54.2077140808106,0,0,932.562
1117,حميديا,31,31.8193664550781,54.3982772827148,0,0,921.708
1118,خضرآباد,31,31.8654651641846,53.9523773193359,0,0,944.088
1119,ديهوك,31,33.2803497314453,57.5159683227539,0,0,473.285
1120,زارچ,31,31.9842662811279,54.2426147460938,0,0,898.555
1121,شاهديه,31,31.9430103302002,54.2801551818848,0,0,903.881
1122,طبس,31,33.5751876831055,56.9353332519531,0,0,549.76
1123,عشق آباد ,31,34.3663558959961,56.9283180236816,0,0,446.172
1124,عقدا,31,32.4395256042481,53.6316566467285,0,0,962.976
1125,مروست,31,30.4653854370117,54.2107696533203,0,0,1100.627
1126,مهردشت,31,31.0231647491455,53.3557357788086,0,0,1071.134
1127,مهريز,31,31.5574188232422,54.4378166198731,0,0,955.837
1128,ميبد,31,32.2422523498535,54.0181427001953,0,0,915.289
1129,ندوشن,31,32.029052734375,53.5485153198242,0,0,966.447
1130,نير ,31,31.4848594665527,54.1288185119629,0,0,991.849
1131,هرات,31,30.0508155822754,54.3697013854981,0,0,1153.023
1132,يزد,31,31.8835220336914,54.3477401733398,0,0,912.625
